     3.05           OBSERVATION DATA    MIXED               RINEX VERSION / TYPE
TPS2RIN 1.0.28.3459 TPS-USER            20240514 230103 UTC PGM / RUN BY / DATE
Win64 build Jun 01, 2022 (c) Topcon Positioning Systems     COMMENT
SRC: log20240502_010249.tps                                 COMMENT
Observer            Agency                                  OBSERVER / AGENCY
U0CGZX290K2         TPS GR5P            5.5.1+2302040000    REC # / TYPE / VERS
SN: GR-5 1118-20018                                         COMMENT
000                 TPSGR5          NONE                    ANT # / TYPE
        1.6760        0.0000        0.0000                  ANTENNA: DELTA H/E/N
DELTA H stands for **SLANT** height here!                   COMMENT
Base1                                                       MARKER NAME
  4451477.4519  2271046.0177  3950022.8913                  APPROX POSITION XYZ
  2024     5     2     8    27   25.0000000     GPS         TIME OF FIRST OBS
  2024     5     2     8    42   45.0000000     GPS         TIME OF LAST OBS
     5.000                                                  INTERVAL
   185 EPOCHS                                               COMMENT
G   12 C1C L1C D1C C1W L1W D1W C2W L2W D2W C2X L2X D2X      SYS / # / OBS TYPES
R   12 C1C L1C D1C C1P L1P D1P C2P L2P D2P C2C L2C D2C      SYS / # / OBS TYPES
    15                                                      # OF SATELLITES
   G05   185   185   185   185   185   185   185   185   185PRN / # OF OBS
         185   185   185                                    PRN / # OF OBS
   G12   185   185   185   185   185   185   185   185   185PRN / # OF OBS
         185   185   185                                    PRN / # OF OBS
   G18   185   185   185   185   185   185   185   185   185PRN / # OF OBS
         185   185   185                                    PRN / # OF OBS
   G20   185   185   185   185   185   185   185   185   185PRN / # OF OBS
           0     0     0                                    PRN / # OF OBS
   G25   185   185   185   185   185   185   185   185   185PRN / # OF OBS
         185   185   185                                    PRN / # OF OBS
   G28   185   185   185   185   185   185   185   185   185PRN / # OF OBS
         185   185   185                                    PRN / # OF OBS
   G29   185   185   185   185   185   185   185   185   185PRN / # OF OBS
         185   185   185                                    PRN / # OF OBS
   G31   185   185   185   185   185   185   185   185   185PRN / # OF OBS
         185   185   185                                    PRN / # OF OBS
   R09   185   185   185   185   185   185   185   185   185PRN / # OF OBS
         185   185   185                                    PRN / # OF OBS
   R10   185   185   185   185   185   185     0     0     0PRN / # OF OBS
           0     0     0                                    PRN / # OF OBS
   R11   116   116   116   115   115   115   115   115   115PRN / # OF OBS
         115   115   115                                    PRN / # OF OBS
   R16     5     5     5     4     4     4     2     2     2PRN / # OF OBS
           3     3     3                                    PRN / # OF OBS
   R19   185   185   185   185   185   185   185   185   185PRN / # OF OBS
         185   185   185                                    PRN / # OF OBS
   R20   185   185   185   185   185   185   185   185   185PRN / # OF OBS
         185   185   185                                    PRN / # OF OBS
   R21   185   185   185   185   185   185   185   185   185PRN / # OF OBS
         185   185   185                                    PRN / # OF OBS
G L1C                                                       SYS / PHASE SHIFT
G L1W -0.25000                                              SYS / PHASE SHIFT
G L2W  0.00000                                              SYS / PHASE SHIFT
G L2X  0.25000                                              SYS / PHASE SHIFT
R L1C                                                       SYS / PHASE SHIFT
R L1P -0.25000                                              SYS / PHASE SHIFT
R L2P -0.25000                                              SYS / PHASE SHIFT
R L2C                                                       SYS / PHASE SHIFT
  7 R09 -2 R10 -7 R11  0 R16 -1 R19  3 R20  2 R21  4        GLONASS SLOT / FRQ #
                                                            GLONASS COD/PHS/BIS
    18                  GPS                                 LEAP SECONDS
                                                            END OF HEADER
> 2024 05 02 08 27 25.0000000  0 13
G05  23201027.165   121922221.493 7      9394.643    23201024.728   121922221.489 6      9394.643    23201035.878    95004366.972 6      7320.501    23201036.480    95004373.987 7      7320.501
R19  21490222.999   114958190.203 7      3922.341    21490222.707   114958190.212 7      3922.341    21490234.191    89411965.774 7      3050.710    21490234.820    89411965.784 7      3050.710
G25  20241818.610   106371465.115 8      6050.311    20241817.873   106371465.112 8      6050.311    20241826.864    82886853.390 8      4714.528    20241828.200    82886892.390 8      4714.528
R20  19284267.878   103121645.632 7      7986.543    19284267.686   103121645.641 7      7986.543    19284279.135    80205767.988 7      6211.756    19284280.000    80205770.986 7      6211.756
G29  20608749.612   108299701.626 8      7488.200    20608747.838   108299701.625 8      7488.200    20608753.203    84389376.711 8      5834.961    20608755.760    84389400.712 8      5834.961
R09  19588706.400   104602590.035 8      5420.866    19588706.552   104602590.020 8      5420.866    19588716.113    81357606.264 8      4216.229    19588715.940    81357606.261 8      4216.229
R10  19472334.243   103798490.140 8      8889.007    19472334.057   103798490.121 7      8889.007
G28  21699093.424   114029496.876 8      7383.133    21699093.422   114029496.875 6      7383.133    21699099.995    88854154.461 6      5753.091    21699100.440    88854180.461 8      5753.091
G12  22234814.340   116844724.213 8      4721.938    22234814.297   116844724.210 7      4721.938    22234819.848    91047833.290 7      3679.433    22234822.460    91047868.295 7      3679.433
G18  22745240.626   119527044.974 7     10534.193    22745240.407   119527044.971 6     10534.193    22745249.218    93137960.649 6      8208.462    22745249.760    93137994.649 8      8208.462
G31  22956963.576   120639650.993 7      9103.188    22956963.101   120639650.989 6      9103.188    22956970.272    94004923.558 6      7093.393    22956971.200    94004950.572 7      7093.393
G20  23149185.540   121649785.012 7      7333.555    23149184.737   121649785.020 5      7333.555    23149192.731    94792072.171 5      5714.458
R21  22719617.237   121577272.560 7     11008.927    22719618.041   121577272.557 7     11008.927    22719631.910    94560155.685 7      8562.499    22719630.740    94560159.687 7      8562.499
> 2024 05 02 08 27 30.0000000  0 13
G05  23192088.517   121875250.027 7      9393.926    23192085.920   121875250.017 7      9393.926    23192097.574    94967765.834 7      7319.942    23192097.860    94967772.848 7      7319.942
R19  21486556.735   114938578.331 7      3922.484    21486556.808   114938578.333 6      3922.484    21486567.824    89396712.064 7      3050.821    21486568.380    89396712.073 7      3050.821
G25  20236062.482   106341215.623 8      6049.429    20236061.601   106341215.619 8      6049.429    20236070.636    82863282.337 8      4713.841    20236071.760    82863321.338 8      4713.841
R20  19276801.574   103081718.767 6      7984.191    19276800.915   103081718.771 6      7984.191    19276812.695    80174713.754 7      6209.926    19276813.560    80174716.750 7      6209.926
G29  20601624.954   108262261.002 8      7488.032    20601623.148   108262260.998 8      7488.032    20601628.544    84360202.192 8      5834.830    20601630.900    84360226.195 8      5834.830
R09  19583631.702   104575491.232 8      5418.681    19583631.819   104575491.213 8      5418.681    19583641.446    81336529.396 8      4214.530    19583641.180    81336529.394 8      4214.530
R10  19463997.384   103754049.941 8      8887.047    19463997.254   103754049.925 8      8887.047
G28  21692069.591   113992586.059 7      7381.246    21692069.403   113992586.055 6      7381.246    21692076.057    88825392.775 6      5751.620    21692076.380    88825418.779 8      5751.620
G12  22230321.941   116821114.924 8      4721.718    22230321.511   116821114.923 7      4721.718    22230326.976    91029436.429 7      3679.261    22230329.840    91029471.437 7      3679.261
G18  22735217.865   119474373.905 7     10534.238    22735217.603   119474373.902 6     10534.238    22735226.233    93096918.265 6      8208.497    22735226.960    93096952.262 8      8208.497
G31  22948302.907   120594138.621 8      9101.746    22948302.705   120594138.614 6      9101.746    22948309.175    93969459.378 6      7092.270    22948310.620    93969486.389 7      7092.270
G20  23142208.675   121613121.328 7      7332.008    23142207.006   121613121.327 4      7332.008    23142216.339    94763503.066 4      5713.253
R21  22709330.746   121522228.434 7     11008.600    22709330.697   121522228.434 7     11008.600    22709345.564    94517343.594 8      8562.245    22709344.520    94517347.594 7      8562.245
> 2024 05 02 08 27 35.0000000  0 13
G05  23183151.112   121828281.045 7      9393.448    23183147.762   121828281.042 7      9393.448    23183160.351    94931166.662 7      7319.570    23183160.820    94931173.676 7      7319.570
R19  21482889.790   114918964.300 7      3922.975    21482890.165   114918964.310 7      3922.975    21482901.280    89381456.689 7      3051.203    21482901.820    89381456.695 7      3051.203
G25  20230306.839   106310969.763 8      6048.842    20230306.060   106310969.758 8      6048.842    20230314.970    82839714.125 8      4713.384    20230316.320    82839753.129 8      4713.384
R20  19269336.993   103041801.736 7      7982.405    19269336.489   103041801.741 6      7982.405    19269347.878    80143667.169 7      6208.537    19269348.680    80143670.164 7      6208.537
G29  20594500.335   108224820.275 8      7488.234    20594498.352   108224820.272 8      7488.234    20594503.865    84331027.588 8      5834.987    20594506.100    84331051.590 8      5834.987
R09  19578558.814   104548402.112 8      5416.885    19578558.813   104548402.095 8      5416.885    19578568.670    81315460.064 8      4213.133    19578568.540    81315460.066 8      4213.133
R10  19455662.039   103709618.688 8      8885.386    19455662.176   103709618.666 8      8885.386
G28  21685047.112   113955683.806 8      7379.710    21685047.265   113955683.805 6      7379.710    21685053.847    88796637.755 6      5750.424    21685054.220    88796663.759 8      5750.424
G12  22225829.172   116797505.420 8      4721.853    22225828.549   116797505.417 7      4721.853    22225834.269    91011039.393 7      3679.366    22225837.220    91011074.399 7      3679.366
G18  22725194.534   119421702.217 7     10534.466    22725194.610   119421702.213 6     10534.466    22725202.990    93055875.404 6      8208.675    22725203.620    93055909.406 8      8208.675
G31  22939643.374   120548632.190 7      9100.672    22939642.954   120548632.189 6      9100.672    22939649.532    93933999.828 6      7091.433    22939651.020    93934026.843 7      7091.433
G20  23135233.026   121576464.403 7      7330.772    23135231.264   121576464.415 4      7330.772    23135240.921    94734939.226 5      5712.290
R21  22699044.703   121467184.496 7     11008.756    22699043.474   121467184.499 7     11008.756    22699058.980    94474531.649 7      8562.365    22699058.380    94474535.644 7      8562.365
> 2024 05 02 08 27 40.0000000  0 13
G05  23174213.211   121781314.565 7      9393.003    23174210.330   121781314.558 6      9393.003    23174222.947    94894569.428 7      7319.223    23174224.220    94894576.441 7      7319.223
R19  21479222.857   114899347.944 7      3923.549    21479223.085   114899347.951 6      3923.549    21479234.192    89366199.484 7      3051.649    21479234.440    89366199.487 7      3051.649
G25  20224551.951   106280727.557 8      6048.071    20224551.219   106280727.552 8      6048.071    20224560.036    82816148.760 8      4712.782    20224561.100    82816187.767 8      4712.782
R20  19261874.143   103001894.563 7      7980.429    19261873.500   103001894.563 7      7980.429    19261884.909    80112628.250 7      6207.000    19261886.040    80112631.254 7      6207.000
G29  20587375.510   108187379.496 8      7488.196    20587373.568   108187379.499 8      7488.196    20587378.844    84301852.955 8      5834.958    20587381.300    84301876.956 8      5834.958
R09  19573487.719   104521322.531 8      5414.976    19573487.601   104521322.514 8      5414.976    19573497.646    81294398.149 8      4211.648    19573497.540    81294398.151 8      4211.648
R10  19447328.237   103665196.378 8      8883.561    19447328.400   103665196.356 7      8883.561
G28  21678026.666   113918790.166 7      7377.866    21678026.415   113918790.166 6      7377.866    21678032.812    88767889.467 6      5748.987    21678033.580    88767915.467 8      5748.987
G12  22221336.190   116773895.852 8      4721.886    22221335.921   116773895.847 7      4721.886    22221341.605    90992642.287 7      3679.391    22221344.640    90992677.294 7      3679.391
G18  22715171.097   119369029.929 7     10534.536    22715171.198   119369029.922 6     10534.536    22715180.216    93014832.078 6      8208.729    22715180.740    93014866.086 8      8208.729
G31  22930984.840   120503131.762 7      9099.485    22930984.154   120503131.758 6      9099.485    22930991.260    93898544.947 6      7090.508    22930992.260    93898571.962 7      7090.508
G20  23128258.855   121539814.252 7      7329.298    23128256.880   121539814.247 4      7329.298    23128266.824    94706380.658 5      5711.141
R21  22688758.445   121412140.649 7     11008.753    22688757.607   121412140.668 7     11008.753    22688772.419    94431719.796 7      8562.363    22688771.940    94431723.794 7      8562.363
> 2024 05 02 08 27 45.0000000  0 13
G05  23165276.332   121734350.860 7      9392.470    23165273.564   121734350.862 7      9392.470    23165286.173    94857974.348 7      7318.808    23165287.120    94857981.354 7      7318.808
R19  21475555.806   114879729.443 7      3923.871    21475555.798   114879729.456 6      3923.871    21475566.856    89350940.633 7      3051.900    21475567.260    89350940.633 7      3051.900
G25  20218797.676   106250489.242 8      6047.237    20218797.161   106250489.237 8      6047.237    20218805.974    82792586.426 8      4712.133    20218807.000    82792625.433 8      4712.133
R20  19254413.408   102961997.486 7      7978.378    19254412.595   102961997.486 7      7978.378    19254424.309    80081597.192 7      6205.405    19254425.000    80081600.192 7      6205.405
G29  20580250.929   108149938.938 8      7487.953    20580249.005   108149938.935 8      7487.953    20580254.145    84272678.481 8      5834.768    20580256.540    84272702.480 8      5834.768
R09  19568418.469   104494252.870 8      5412.875    19568418.178   104494252.856 8      5412.875    19568428.269    81273343.972 8      4210.014    19568428.060    81273343.972 8      4210.014
R10  19438996.681   103620783.142 8      8881.672    19438996.513   103620783.121 7      8881.672
G28  21671007.557   113881905.380 7      7376.034    21671007.263   113881905.378 6      7376.034    21671013.976    88739148.063 6      5747.559    21671014.560    88739174.063 8      5747.559
G12  22216843.584   116750286.282 8      4721.792    22216843.101   116750286.281 7      4721.792    22216848.784    90974245.219 7      3679.318    22216851.240    90974280.220 7      3679.318
G18  22705148.114   119316357.311 7     10534.569    22705148.085   119316357.310 6     10534.569    22705155.962    92973788.488 6      8208.755    22705157.100    92973822.492 8      8208.755
G31  22922327.338   120457637.607 7      9098.181    22922327.000   120457637.606 6      9098.181    22922333.838    93863094.960 6      7089.491    22922335.480    93863121.962 7      7089.491
G20  23121286.254   121503171.164 7      7327.793    23121284.666   121503171.161 4      7327.793    23121293.507    94677827.591 4      5709.969
R21  22678472.024   121357097.268 7     11008.545    22678472.534   121357097.288 7     11008.545    22678485.943    94388908.281 7      8562.201    22678485.320    94388912.273 7      8562.201
> 2024 05 02 08 27 50.0000000  0 13
G05  23156340.268   121687390.558 7      9391.725    23156337.396   121687390.561 7      9391.725    23156349.693    94821381.933 7      7318.227    23156350.720    94821388.933 7      7318.227
R19  21471887.806   114860109.439 7      3924.051    21471888.548   114860109.445 7      3924.051    21471899.163    89335680.597 7      3052.040    21471899.340    89335680.596 7      3052.040
G25  20213044.707   106220255.402 8      6046.210    20213043.846   106220255.397 8      6046.210    20213052.558    82769027.579 8      4711.333    20213053.740    82769066.584 8      4711.333
R20  19246954.387   102922111.153 7      7976.105    19246953.353   102922111.165 6      7976.105    19246965.268    80050574.494 7      6203.637    19246965.840    80050577.499 7      6203.637
G29  20573126.071   108112499.034 8      7487.819    20573124.359   108112499.036 8      7487.819    20573129.574    84243504.526 8      5834.664    20573132.000    84243528.526 8      5834.664
R09  19563351.193   104467193.527 8      5410.796    19563350.713   104467193.510 8      5410.796    19563360.765    81252297.788 8      4208.397    19563360.620    81252297.785 8      4208.397
R10  19430666.767   103576379.674 8      8879.581    19430666.381   103576379.659 8      8879.581
G28  21663990.541   113845029.954 7      7374.084    21663990.273   113845029.956 6      7374.084    21663997.061    88710413.960 6      5746.040    21663997.260    88710439.964 8      5746.040
G12  22212350.861   116726677.303 8      4721.661    22212350.282   116726677.296 7      4721.661    22212356.471    90955848.576 7      3679.216    22212358.940    90955883.573 7      3679.216
G18  22695124.761   119263684.935 7     10534.307    22695124.761   119263684.931 6     10534.307    22695133.537    92932745.088 6      8208.551    22695134.020    92932779.098 8      8208.551
G31  22913671.735   120412150.302 8      9096.677    22913671.683   120412150.297 6      9096.677    22913677.668    93827650.294 6      7088.320    22913678.800    93827677.296 7      7088.320
G20  23114314.677   121466535.651 7      7326.258    23114313.298   121466535.640 5      7326.258    23114321.214    94649280.461 5      5708.773
R21  22668186.322   121302054.783 7     11008.333    22668187.606   121302054.815 8     11008.333    22668199.709    94346097.490 7      8562.037    22668199.340    94346101.487 7      8562.037
> 2024 05 02 08 27 55.0000000  0 13
G05  23147404.392   121640433.317 7      9391.059    23147402.176   121640433.320 7      9391.059    23147413.759    94784791.915 7      7317.708    23147414.260    94784798.909 7      7317.708
R19  21468219.739   114840487.672 7      3924.582    21468220.287   114840487.681 6      3924.582    21468230.828    89320419.198 7      3052.453    21468231.580    89320419.196 7      3052.453
G25  20207291.978   106190025.671 8      6045.556    20207291.236   106190025.669 8      6045.556    20207300.105    82745471.934 8      4710.823    20207301.240    82745510.938 8      4710.823
R20  19239496.759   102882235.269 7      7974.250    19239496.925   102882235.264 6      7974.250    19239508.268    80019559.901 7      6202.195    19239508.960    80019562.905 7      6202.195
G29  20566001.734   108075059.547 8      7487.903    20565999.954   108075059.550 8      7487.903    20566005.071    84214330.894 8      5834.729    20566007.500    84214354.896 8      5834.729
R09  19558285.658   104440144.205 8      5408.870    19558285.464   104440144.190 8      5408.870    19558295.422    81231259.411 8      4206.899    19558295.000    81231259.407 8      4206.899
R10  19422338.723   103531985.851 8      8877.815    19422338.441   103531985.828 7      8877.815
G28  21656975.218   113808163.631 7      7372.308    21656974.877   113808163.629 6      7372.308    21656981.352    88681686.947 6      5744.656    21656981.700    88681712.947 8      5744.656
G12  22207858.225   116703068.642 8      4721.630    22207857.779   116703068.635 7      4721.630    22207863.817    90937452.184 7      3679.192    22207866.420    90937487.180 7      3679.192
G18  22685101.719   119211012.440 7     10534.551    22685101.718   119211012.434 6     10534.551    22685110.096    92891701.593 6      8208.741    22685110.800    92891735.605 8      8208.741
G31  22905017.239   120366669.474 8      9095.510    22905016.556   120366669.473 6      9095.510    22905022.679    93792210.689 6      7087.410    22905023.960    93792237.689 7      7087.410
G20  23107344.283   121429907.451 7      7324.788    23107343.044   121429907.456 5      7324.788    23107351.834    94620738.974 5      5707.627
R21  22657900.652   121247012.942 7     11008.423    22657902.798   121247012.976 8     11008.423    22657913.997    94303287.179 7      8562.107    22657913.440    94303291.183 7      8562.107
> 2024 05 02 08 28  0.0000000  0 13
G05  23138469.424   121593479.362 7      9390.550    23138467.091   121593479.361 7      9390.550    23138478.528    94748204.423 7      7317.312    23138478.960    94748211.424 7      7317.312
R19  21464551.978   114820864.293 7      3924.960    21464551.965   114820864.296 6      3924.960    21464562.676    89305156.546 7      3052.746    21464563.180    89305156.545 7      3052.746
G25  20201540.428   106159800.327 8      6044.623    20201539.559   106159800.319 8      6044.623    20201548.439    82721919.698 8      4710.096    20201549.720    82721958.702 8      4710.096
R20  19232041.869   102842369.973 7      7972.021    19232041.719   102842369.981 7      7972.021    19232053.413    79988553.559 7      6200.461    19232053.940    79988556.563 7      6200.461
G29  20558877.543   108037620.734 8      7487.743    20558875.398   108037620.731 8      7487.743    20558880.818    84185157.779 8      5834.605    20558883.240    84185181.779 8      5834.605
R09  19553222.114   104413105.261 9      5406.803    19553221.992   104413105.246 8      5406.803    19553232.032    81210229.112 8      4205.291    19553231.780    81210229.107 8      4205.291
R10  19414012.584   103487601.847 8      8875.866    19414012.259   103487601.830 8      8875.866
G28  21649961.688   113771306.591 7      7370.576    21649961.665   113771306.592 6      7370.576    21649967.701    88652967.171 6      5743.306    21649968.300    88652993.173 8      5743.306
G12  22203365.966   116679460.448 7      4721.565    22203365.362   116679460.443 7      4721.565    22203371.367    90919056.167 7      3679.142    22203373.800    90919091.162 7      3679.142
G18  22675078.586   119158340.149 7     10534.416    22675078.376   119158340.148 6     10534.416    22675086.619    92850658.258 6      8208.636    22675087.560    92850692.265 8      8208.636
G31  22896363.442   120321195.362 7      9094.184    22896362.968   120321195.360 6      9094.184    22896369.369    93756776.321 6      7086.377    22896370.060    93756803.325 7      7086.377
G20  23100375.632   121393286.747 7      7323.348    23100374.585   121393286.754 5      7323.348    23100383.776    94592203.337 4      5706.505
R21  22647614.788   121191972.088 7     11008.036    22647617.504   121191972.111 8     11008.036    22647627.783    94260477.634 7      8561.806    22647627.800    94260481.639 7      8561.806
> 2024 05 02 08 28  5.0000000  0 13
G05  23129535.235   121546528.917 7      9389.809    23129532.682   121546528.914 7      9389.809    23129543.714    94711619.684 7      7316.734    23129544.860    94711626.691 7      7316.734
R19  21460883.521   114801239.331 7      3925.384    21460883.561   114801239.354 6      3925.384    21460894.062    89289892.674 7      3053.076    21460894.700    89289892.678 7      3053.076
G25  20195789.367   106129579.496 8      6043.751    20195788.769   106129579.495 8      6043.751    20195797.593    82698370.996 8      4709.417    20195798.940    82698410.000 8      4709.417
R20  19224589.108   102802515.369 7      7969.989    19224588.674   102802515.371 7      7969.989    19224600.363    79957555.532 7      6198.880    19224601.060    79957558.533 7      6198.880
G29  20551753.147   108000182.711 8      7487.617    20551751.140   108000182.709 8      7487.617    20551756.587    84155985.288 8      5834.507    20551758.740    84156009.287 8      5834.507
R09  19548160.529   104386076.814 8      5404.754    19548160.643   104386076.796 8      5404.754    19548170.497    81189206.972 8      4203.698    19548170.420    81189206.965 8      4203.698
R10  19405688.129   103443227.731 8      8874.029    19405687.839   103443227.710 8      8874.029
G28  21642949.596   113734459.067 7      7368.626    21642949.439   113734459.069 6      7368.626    21642956.027    88624254.800 6      5741.786    21642956.240    88624280.803 8      5741.786
G12  22198873.636   116655852.943 7      4721.574    22198873.085   116655852.940 7      4721.574    22198879.060    90900660.691 7      3679.148    22198881.580    90900695.680 7      3679.148
G18  22665055.334   119105668.166 7     10534.495    22665055.182   119105668.166 6     10534.495    22665063.789    92809615.165 6      8208.698    22665064.400    92809649.172 8      8208.698
G31  22887711.493   120275728.208 7      9092.874    22887710.846   120275728.212 6      9092.874    22887717.831    93721347.363 6      7085.356    22887717.880    93721374.369 7      7085.356
G20  23093408.260   121356673.700 7      7322.027    23093407.066   121356673.710 4      7322.027    23093416.181    94563673.694 4      5705.475
R21  22637329.268   121136932.322 8     11008.000    22637332.038   121136932.332 8     11008.000    22637342.789    94217668.934 7      8561.778    22637342.140    94217672.942 7      8561.778
> 2024 05 02 08 28 10.0000000  0 13
G05  23120601.375   121499582.204 7      9389.026    23120598.842   121499582.196 7      9389.026    23120610.040    94675037.853 7      7316.124    23120610.880    94675044.867 7      7316.124
R19  21457214.552   114781613.190 6      3925.328    21457214.618   114781613.199 6      3925.328    21457225.409    89274627.881 7      3053.033    21457225.820    89274627.881 7      3053.033
G25  20190039.436   106099363.481 8      6042.767    20190038.840   106099363.476 8      6042.767    20190047.837    82674826.043 8      4708.650    20190049.020    82674865.049 8      4708.650
R20  19217138.223   102762671.749 7      7967.622    19217137.806   102762671.758 7      7967.622    19217149.193    79926566.050 7      6197.040    19217150.260    79926569.051 7      6197.040
G29  20544629.129   107962745.747 8      7487.309    20544627.165   107962745.748 8      7487.309    20544632.677    84126813.628 8      5834.266    20544634.900    84126837.631 8      5834.266
R09  19543100.968   104359059.109 8      5402.466    19543101.033   104359059.094 8      5402.466    19543110.845    81168193.194 8      4201.918    19543111.020    81168193.191 8      4201.918
R10  19397365.687   103398863.656 8      8871.731    19397365.494   103398863.641 8      8871.731
G28  21635939.599   113697621.249 7      7366.575    21635939.285   113697621.246 6      7366.575    21635945.803    88595550.010 6      5740.188    21635946.400    88595576.013 8      5740.188
G12  22194381.403   116632246.393 7      4721.269    22194380.740   116632246.388 7      4721.269    22194386.858    90882265.941 7      3678.911    22194389.640    90882300.938 7      3678.911
G18  22655032.327   119052996.810 7     10534.194    22655032.405   119052996.803 6     10534.194    22655040.409    92768572.577 6      8208.463    22655041.660    92768606.584 8      8208.463
G31  22879060.763   120230268.211 7      9091.313    22879059.809   120230268.209 6      9091.313    22879066.605    93685923.985 6      7084.140    22879067.320    93685950.994 7      7084.140
G20  23086443.040   121320068.625 7      7320.261    23086441.018   121320068.636 5      7320.261    23086449.707    94535150.272 4      5704.099
R21  22627044.236   121081893.967 8     11007.544    22627046.026   121081893.976 8     11007.544    22627057.924    94174861.343 7      8561.423    22627057.360    94174865.348 7      8561.423
> 2024 05 02 08 28 15.0000000  0 13
G05  23111668.072   121452638.530 7      9388.397    23111665.177   121452638.526 7      9388.397    23111677.063    94638458.405 7      7315.634    23111678.040    94638465.419 7      7315.634
R19  21453544.902   114761985.218 7      3925.762    21453544.633   114761985.219 6      3925.762    21453556.322    89259361.644 7      3053.370    21453556.540    89259361.642 7      3053.370
G25  20184290.410   106069151.557 8      6041.964    20184289.805   106069151.554 8      6041.964    20184298.568    82651284.261 8      4708.024    20184299.780    82651323.270 8      4708.024
R20  19209689.828   102722838.456 7      7965.624    19209688.846   102722838.466 7      7965.624    19209700.157    79895584.605 7      6195.486    19209701.160    79895587.603 7      6195.486
G29  20537505.209   107925309.141 8      7487.294    20537503.305   107925309.141 8      7487.294    20537508.835    84097642.242 8      5834.255    20537511.240    84097666.240 8      5834.255
R09  19538043.445   104332051.416 8      5400.485    19538043.275   104332051.400 8      5400.485    19538053.230    81147187.185 8      4200.377    19538053.160    81147187.185 8      4200.377
R10  19389045.054   103354509.124 8      8869.907    19389044.430   103354509.105 8      8869.907
G28  21628931.245   113660792.463 8      7364.877    21628931.161   113660792.463 6      7364.877    21628937.645    88566852.241 6      5738.865    21628938.220    88566878.245 8      5738.865
G12  22189889.325   116608640.018 7      4721.314    22189888.956   116608640.017 7      4721.314    22189894.682    90863871.346 7      3678.946    22189896.880    90863906.345 7      3678.946
G18  22645009.039   119000325.362 7     10534.274    22645009.305   119000325.355 6     10534.274    22645017.667    92727529.884 6      8208.526    22645018.600    92727563.899 8      8208.526
G31  22870411.033   120184814.668 7      9090.130    22870411.270   120184814.664 6      9090.130    22870417.191    93650505.632 6      7083.218    22870417.880    93650532.649 7      7083.218
G20  23079478.158   121283470.742 7      7318.887    23079477.393   121283470.746 5      7318.887    23079485.525    94506632.432 5      5703.029
R21  22616758.945   121026856.201 7     11007.592    22616758.876   121026856.201 8     11007.592    22616772.949    94132054.198 7      8561.461    22616772.420    94132058.206 7      8561.461
> 2024 05 02 08 28 20.0000000  0 13
G05  23102735.773   121405698.273 7      9387.507    23102732.584   121405698.266 7      9387.507    23102744.689    94601881.602 7      7314.940    23102745.580    94601888.615 7      7314.940
R19  21449875.539   114742355.592 6      3926.060    21449875.588   114742355.589 6      3926.060    21449886.526    89244094.117 7      3053.602    21449886.940    89244094.116 7      3053.602
G25  20178541.951   106038944.001 8      6040.940    20178541.505   106038943.999 8      6040.940    20178550.407    82627745.902 8      4707.226    20178551.540    82627784.910 8      4707.226
R20  19202242.260   102683015.756 7      7963.382    19202241.878   102683015.765 7      7963.382    19202253.188    79864611.392 7      6193.742    19202253.980    79864614.391 7      6193.742
G29  20530381.361   107887873.203 8      7486.986    20530379.447   107887873.202 8      7486.986    20530384.905    84068471.368 8      5834.015    20530387.240    84068495.368 8      5834.015
R09  19532987.875   104305054.007 8      5398.310    19532987.802   104305053.989 8      5398.310    19532997.574    81126189.188 8      4198.686    19532997.200    81126189.188 8      4198.686
R10  19380725.777   103310164.372 8      8867.801    19380725.366   103310164.351 8      8867.801
G28  21621924.846   113623973.022 8      7362.814    21621924.742   113623973.025 6      7362.814    21621931.407    88538161.756 6      5737.258    21621931.700    88538187.760 8      5737.258
G12  22185397.226   116585034.193 7      4720.966    22185396.682   116585034.191 7      4720.966    22185402.682    90845477.168 7      3678.675    22185404.940    90845512.167 7      3678.675
G18  22634986.269   118947654.124 7     10534.181    22634985.927   118947654.121 6     10534.181    22634994.410    92686487.381 6      8208.452    22634995.440    92686521.389 8      8208.452
G31  22861762.950   120139367.953 7      9088.518    22861762.070   120139367.954 5      9088.518    22861768.612    93615092.616 6      7081.962    22861770.560    93615119.626 7      7081.962
G20  23072515.350   121246880.419 7      7317.248    23072514.421   121246880.428 5      7317.248    23072523.144    94478120.490 5      5701.752
R21  22606473.750   120971819.454 7     11007.108    22606472.031   120971819.453 7     11007.108    22606487.986    94089247.842 7      8561.084    22606487.800    94089251.852 7      8561.084
> 2024 05 02 08 28 25.0000000  0 13
G05  23093804.070   121358762.263 7      9386.668    23093800.549   121358762.257 7      9386.668    23093813.287    94565308.105 7      7314.287    23093813.940    94565315.114 7      7314.287
R19  21446206.151   114722725.097 6      3926.133    21446205.150   114722725.094 6      3926.133    21446216.973    89228825.921 7      3053.659    21446217.100    89228825.925 7      3053.659
G25  20172794.796   106008741.695 8      6039.938    20172794.085   106008741.693 8      6039.938    20172803.150    82604211.622 8      4706.445    20172804.260    82604250.630 8      4706.445
R20  19194797.021   102643204.559 7      7961.029    19194796.868   102643204.572 7      7961.029    19194808.477    79833647.126 7      6191.912    19194809.020    79833650.129 7      6191.912
G29  20523257.821   107850438.755 8      7486.750    20523255.817   107850438.752 8      7486.750    20523261.488    84039301.660 8      5833.831    20523263.880    84039325.662 8      5833.831
R09  19527934.129   104278067.729 8      5396.043    19527934.075   104278067.719 8      5396.043    19527943.786    81105199.846 8      4196.923    19527943.300    81105199.843 8      4196.923
R10  19372409.116   103265830.189 8      8865.770    19372408.627   103265830.173 8      8865.770
G28  21614920.624   113587163.748 8      7360.869    21614919.958   113587163.748 6      7360.869    21614926.731    88509479.187 6      5735.742    21614927.260    88509505.184 8      5735.742
G12  22180905.288   116561429.695 7      4720.818    22180904.904   116561429.691 7      4720.818    22180910.805    90827084.044 7      3678.560    22180913.420    90827119.044 7      3678.560
G18  22624963.276   118894984.013 7     10533.846    22624963.381   118894984.010 6     10533.846    22624971.417    92645445.742 6      8208.191    22624972.700    92645479.750 8      8208.191
G31  22853116.191   120093928.923 8      9086.974    22853115.704   120093928.919 6      9086.974    22853121.885    93579685.564 6      7080.759    22853123.000    93579712.579 7      7080.759
G20  23065554.182   121210298.525 7      7315.473    23065552.652   121210298.522 5      7315.473    23065562.547    94449615.109 5      5700.369
R21  22596189.425   120916784.545 7     11006.740    22596187.489   120916784.557 7     11006.740    22596203.579    94046442.923 7      8560.798    22596203.180    94046446.930 7      8560.798
> 2024 05 02 08 28 30.0000000  0 14
R16  23815849.331   127219992.685 6      3277.243
G05  23084873.177   121311829.496 7      9386.146    23084869.642   121311829.496 7      9386.146    23084882.336    94528737.142 7      7313.880    23084882.800    94528744.150 7      7313.880
R19  21442535.791   114703092.749 6      3926.541    21442535.078   114703092.763 6      3926.541    21442546.687    89213556.314 7      3053.976    21442546.980    89213556.321 7      3053.976
G25  20167048.484   105978543.600 8      6039.063    20167047.821   105978543.600 8      6039.063    20167056.688    82580680.628 8      4705.763    20167057.820    82580719.636 8      4705.763
R20  19187354.303   102603403.776 7      7958.978    19187354.016   102603403.773 7      7958.978    19187365.615    79802690.947 7      6190.317    19187366.240    79802693.944 7      6190.317
G29  20516134.407   107813004.780 8      7486.572    20516132.412   107813004.776 8      7486.572    20516137.998    84010132.328 8      5833.692    20516140.440    84010156.329 8      5833.692
R09  19522882.428   104251091.601 8      5394.134    19522882.121   104251091.585 8      5394.134    19522891.750    81084218.396 8      4195.438    19522891.660    81084218.390 8      4195.438
R10  19364093.755   103221505.810 8      8863.761    19364093.500   103221505.787 8      8863.761
G28  21607917.558   113550363.629 7      7358.988    21607917.191   113550363.629 6      7358.988    21607924.275    88480803.754 6      5734.277    21607924.220    88480829.751 8      5734.277
G12  22176413.773   116537825.569 8      4720.638    22176413.256   116537825.570 7      4720.638    22176419.174    90808691.183 7      3678.419    22176421.880    90808726.187 7      3678.419
G18  22614940.674   118842313.921 7     10533.867    22614940.214   118842313.925 6     10533.867    22614949.651    92604404.122 6      8208.208    22614950.180    92604438.127 8      8208.208
G31  22844470.754   120048496.484 8      9085.645    22844470.423   120048496.483 5      9085.645    22844476.989    93544283.672 5      7079.723    22844478.140    93544310.679 7      7079.723
G20  23058594.257   121173723.980 7      7313.990    23058593.195   121173723.983 5      7313.990    23058602.748    94421115.454 5      5699.213
R21  22585905.127   120861750.518 7     11006.645    22585903.005   120861750.542 7     11006.645    22585918.576    94003638.691 7      8560.724    22585918.740    94003642.696 7      8560.724
> 2024 05 02 08 28 35.0000000  0 13
G05  23075942.661   121264900.538 7      9385.440    23075939.875   121264900.534 7      9385.440    23075952.237    94492169.127 7      7313.330    23075952.740    94492176.138 7      7313.330
R19  21438864.929   114683459.228 7      3926.835    21438865.103   114683459.248 6      3926.835    21438876.905    89198285.784 7      3054.205    21438876.880    89198285.786 7      3054.205
G25  20161302.762   105948350.255 8      6038.318    20161302.110   105948350.253 8      6038.318    20161311.085    82557153.330 8      4705.183    20161312.440    82557192.334 8      4705.183
R20  19179913.038   102563613.987 7      7956.950    19179912.865   102563613.986 6      7956.950    19179924.621    79771743.330 7      6188.739    19179925.280    79771746.333 7      6188.739
G29  20509011.154   107775571.817 8      7486.549    20509009.185   107775571.818 8      7486.549    20509014.757    83980963.782 8      5833.674    20509016.860    83980987.779 8      5833.674
R09  19517832.616   104224126.098 8      5392.155    19517832.511   104224126.080 8      5392.155    19517842.216    81063245.212 8      4193.898    19517841.760    81063245.204 8      4193.898
R10  19355780.639   103177191.675 8      8861.872    19355780.594   103177191.657 8      8861.872
G28  21600916.390   113513573.199 7      7357.196    21600916.157   113513573.203 6      7357.196    21600922.812    88452135.887 6      5732.880    21600923.460    88452161.888 8      5732.880
G12  22171922.395   116514222.305 8      4720.687    22171921.912   116514222.306 7      4720.687    22171927.832    90790299.006 7      3678.457    22171930.660    90790334.008 7      3678.457
G18  22604917.745   118789644.499 7     10533.850    22604918.366   118789644.494 6     10533.850    22604926.590    92563363.015 6      8208.195    22604927.240    92563397.024 8      8208.195
G31  22835826.404   120003071.260 7      9084.351    22835826.033   120003071.261 5      9084.351    22835833.004    93508887.398 5      7078.715    22835833.640    93508914.401 7      7078.715
G20  23051635.922   121137157.371 7      7312.539    23051634.765   121137157.362 5      7312.539    23051643.537    94392622.004 5      5698.082
R21  22575620.908   120806717.827 8     11006.513    22575620.776   120806717.863 8     11006.513    22575634.497    93960835.500 7      8560.621    22575634.480    93960839.495 7      8560.621
> 2024 05 02 08 28 40.0000000  0 13
G05  23366807.293   122793404.899 7      9384.643    23366805.017   122793404.895 7      9384.643    23366817.127    95683211.503 7      7312.709    23366818.080    95683218.514 7      7312.709
R19  21734987.326   116267515.845 6      3926.981    21734988.394   116267515.848 6      3926.981    21734999.366    90430329.771 7      3054.318    21734999.640    90430329.776 7      3054.318
G25  20455351.723   107493587.879 8      6037.250    20455350.999   107493587.876 8      6037.250    20455360.000    83761234.586 8      4704.350    20455361.480    83761273.592 8      4704.350
R20  19472268.362   104126968.161 7      7954.764    19472268.213   104126968.165 7      7954.764    19472279.626    80987685.461 7      6187.038    19472280.340    80987688.462 7      6187.038
G29  20801682.132   109313567.508 8      7486.348    20801680.132   109313567.505 8      7486.348    20801685.625    85179401.972 8      5833.518    20801687.920    85179425.972 8      5833.518
R09  19812578.324   105798051.851 9      5389.870    19812578.423   105798051.834 8      5389.870    19812588.028    82287409.681 8      4192.121    19812587.580    82287409.676 8      4192.121
R10  19647263.663   104730959.302 8      8859.789    19647263.257   104730959.284 8      8859.789
G28  21893711.262   115052219.984 7      7355.204    21893711.268   115052219.983 6      7355.204    21893717.767    89651081.424 6      5731.328    21893717.940    89651107.423 8      5731.328
G12  22467224.490   118066044.801 8      4720.417    22467224.060   118066044.798 7      4720.417    22467229.551    91999511.315 7      3678.247    22467232.400    91999546.319 7      3678.247
G18  22894689.859   120312406.385 7     10533.652    22894689.816   120312406.376 6     10533.652    22894697.899    93749930.732 6      8208.041    22894699.360    93749964.741 8      8208.041
G31  23126977.795   121533082.470 8      9082.923    23126977.203   121533082.470 6      9082.923    23126983.913    94701103.916 6      7077.602    23126984.920    94701130.918 7      7077.602
G20  23344472.656   122676026.126 7      7310.950    23344471.589   122676026.130 5      7310.950    23344481.073    95591740.506 5      5696.844
R21  22865131.598   122355947.658 8     11006.162    22865133.053   122355947.692 8     11006.162    22865144.929    95165792.060 7      8560.348    22865145.040    95165796.052 7      8560.348
> 2024 05 02 08 28 45.0000000  0 13
G05  23357878.208   122746483.495 7      9383.881    23357876.401   122746483.497 7      9383.881    23357888.359    95646649.404 7      7312.115    23357889.700    95646656.411 7      7312.115
R19  21731316.174   116247879.481 6      3927.454    21731317.269   116247879.497 6      3927.454    21731328.692    90415057.025 7      3054.686    21731328.960    90415057.028 7      3054.686
G25  20449607.874   107463404.010 8      6036.236    20449607.263   107463404.010 8      6036.236    20449616.192    83737714.682 8      4703.561    20449617.400    83737753.691 8      4703.561
R20  19464831.567   104087200.110 7      7952.578    19464831.103   104087200.122 6      7952.578    19464842.692    80956754.759 7      6185.338    19464843.380    80956757.762 7      6185.338
G29  20794559.238   109276136.537 8      7486.071    20794557.259   109276136.535 8      7486.071    20794562.757    85150234.975 8      5833.302    20794565.020    85150258.978 8      5833.302
R09  19807532.700   105771107.612 9      5387.726    19807532.271   105771107.598 8      5387.726    19807542.361    82266453.029 8      4190.454    19807542.120    82266453.024 8      4190.454
R10  19638954.224   104686665.549 8      8857.778    19638953.764   104686665.531 8      8857.778
G28  21886713.674   115015448.923 7      7353.260    21886713.542   115015448.920 6      7353.260    21886720.416    89622428.637 6      5729.813    21886720.640    89622454.637 8      5729.813
G12  22462733.137   118042443.266 8      4720.199    22462733.051   118042443.265 7      4720.199    22462738.599    91981120.490 7      3678.077    22462740.980    91981155.493 7      3678.077
G18  22884667.486   120259738.191 7     10533.471    22884667.705   120259738.186 6     10533.471    22884675.829    93708890.594 6      8207.899    22884676.660    93708924.593 8      8207.899
G31  23118336.286   121487671.638 7      9081.312    23118335.937   121487671.636 5      9081.312    23118342.208    94665718.862 5      7076.347    23118343.280    94665745.860 7      7076.347
G20  23337517.565   122639475.323 7      7309.399    23337515.886   122639475.331 5      7309.399    23337525.058    95563259.358 5      5695.636
R21  22854847.876   122300917.688 8     11005.826    22854849.789   122300917.718 8     11005.826    22854861.231    95122990.982 7      8560.087    22854861.100    95122994.978 7      8560.087
> 2024 05 02 08 28 50.0000000  0 13
G05  23348950.324   122699565.952 7      9383.053    23348948.120   122699565.954 7      9383.053    23348959.051    95610090.306 7      7311.470    23348961.100    95610097.312 7      7311.470
R19  21727645.678   116228241.841 6      3927.583    21727646.298   116228241.852 6      3927.583    21727657.547    90399783.274 7      3054.787    21727657.960    90399783.277 7      3054.787
G25  20443864.836   107433224.937 8      6035.317    20443864.259   107433224.934 8      6035.317    20443873.255    83714198.509 8      4702.845    20443874.660    83714237.514 8      4702.845
R20  19457397.258   104047443.001 7      7950.175    19457396.414   104047443.012 7      7950.175    19457407.917    80925832.561 7      6183.469    19457408.740    80925835.565 7      6183.469
G29  20787436.394   109238706.618 8      7485.764    20787434.508   109238706.617 8      7485.764    20787439.981    85121068.805 8      5833.063    20787442.220    85121092.810 8      5833.063
R09  19802488.761   105744174.011 8      5385.525    19802488.141   105744173.998 8      5385.525    19802498.419    82245504.664 8      4188.741    19802498.300    82245504.662 8      4188.741
R10  19630646.320   104642382.147 8      8855.577    19630646.337   104642382.125 8      8855.577
G28  21879718.532   114978687.606 7      7351.160    21879718.249   114978687.610 6      7351.160    21879724.857    89593783.448 6      5728.176    21879725.160    89593809.455 8      5728.176
G12  22458242.331   118018842.641 8      4719.980    22458241.916   118018842.640 7      4719.980    22458247.332    91962730.382 7      3677.907    22458249.940    91962765.382 7      3677.907
G18  22874645.318   120207070.679 7     10533.280    22874645.435   120207070.683 6     10533.280    22874653.717    93667850.980 6      8207.751    22874654.220    93667884.980 8      8207.751
G31  23109696.361   121442268.032 7      9079.955    23109695.947   121442268.029 5      9079.955    23109702.397    94630339.433 5      7075.290    23109702.840    94630366.427 7      7075.290
G20  23330563.718   122602932.486 7      7307.671    23330562.708   122602932.500 5      7307.671    23330571.580    95534784.418 5      5694.289
R21  22844564.342   122245889.151 8     11005.453    22844566.508   122245889.167 8     11005.453    22844577.773    95080191.028 7      8559.797    22844577.400    95080195.023 7      8559.797
> 2024 05 02 08 28 55.0000000  0 13
G05  23340023.140   122652652.660 7      9382.212    23340020.296   122652652.659 7      9382.212    23340031.688    95573534.500 7      7310.814    23340033.560    95573541.498 7      7310.814
R19  21723974.482   116208603.069 6      3927.716    21723975.190   116208603.081 6      3927.716    21723986.261    90384508.649 7      3054.890    21723986.580    90384508.654 7      3054.890
G25  20438122.956   107403051.029 8      6034.183    20438122.388   107403051.021 8      6034.183    20438131.291    83690686.362 8      4701.961    20438132.600    83690725.367 8      4701.961
R20  19449964.247   104007697.253 7      7947.858    19449963.898   104007697.259 7      7947.858    19449975.427    80894919.196 7      6181.667    19449975.800    80894922.199 7      6181.667
G29  20780314.151   109201278.079 8      7485.520    20780312.082   109201278.080 8      7485.520    20780317.561    85091903.702 8      5832.872    20780319.900    85091927.705 8      5832.872
R09  19797447.029   105717251.495 9      5383.348    19797446.685   105717251.481 8      5383.348    19797456.786    82224564.919 8      4187.048    19797456.540    82224564.919 8      4187.048
R10  19622340.661   104598109.358 8      8853.413    19622341.026   104598109.335 8      8853.413
G28  21872724.948   114941936.362 8      7349.143    21872724.664   114941936.367 6      7349.143    21872731.127    89565146.113 6      5726.605    21872731.760    89565172.121 8      5726.605
G12  22453751.299   117995243.310 8      4719.651    22453751.139   117995243.308 7      4719.651    22453756.523    91944341.259 7      3677.650    22453759.100    91944376.258 7      3677.650
G18  22864623.371   120154404.226 7     10533.135    22864623.418   120154404.222 6     10533.135    22864631.524    93626812.192 6      8207.637    22864631.880    93626846.189 8      8207.637
G31  23101057.931   121396872.058 7      9078.390    23101057.659   121396872.049 5      9078.390    23101063.404    94594965.928 5      7074.070    23101064.120    94594992.929 7      7074.070
G20  23323611.231   122566397.930 7      7306.066    23323610.379   122566397.937 5      7306.066    23323618.924    95506315.924 5      5693.038
R21  22834281.393   122190862.374 8     11005.044    22834283.091   122190862.379 8     11005.044    22834294.822    95037392.440 7      8559.478    22834294.160    95037396.436 7      8559.478
> 2024 05 02 08 29  0.0000000  0 13
G05  23331096.628   122605743.629 7      9381.405    23331093.254   122605743.621 6      9381.405    23331104.951    95536982.028 6      7310.186    23331106.000    95536989.026 7      7310.186
R19  21720303.373   116188963.275 6      3928.199    21720303.405   116188963.283 6      3928.199    21720314.864    90369233.245 7      3055.266    21720315.040    90369233.250 7      3055.266
G25  20432382.083   107372882.315 8      6033.186    20432381.465   107372882.310 8      6033.186    20432390.473    83667178.257 8      4701.184    20432391.440    83667217.263 8      4701.184
R20  19442533.950   103967962.990 7      7945.688    19442533.361   103967962.983 7      7945.688    19442544.912    80864014.760 7      6179.979    19442545.680    80864017.760 7      6179.979
G29  20773191.743   109163850.971 8      7485.280    20773189.988   109163850.970 8      7485.280    20773195.316    85062739.717 8      5832.686    20773197.860    85062763.720 8      5832.686
R09  19792407.481   105690340.067 8      5381.241    19792407.135   105690340.051 8      5381.241    19792417.129    82203633.791 8      4185.410    19792416.940    82203633.789 8      4185.410
R10  19614037.539   104553847.175 8      8851.387    19614037.507   104553847.155 8      8851.387
G28  21865733.412   114905195.250 7      7347.283    21865733.331   114905195.248 6      7347.283    21865739.548    89536516.661 6      5725.156    21865740.260    89536542.665 8      5725.156
G12  22449260.629   117971645.240 8      4719.567    22449260.611   117971645.237 7      4719.567    22449265.934    91925953.132 7      3677.585    22449268.460    91925988.134 7      3677.585
G18  22854601.163   120101738.890 8     10532.943    22854601.743   120101738.890 6     10532.943    22854609.418    93585774.280 6      8207.488    22854609.980    93585808.278 8      8207.488
G31  23092420.812   121351483.745 7      9076.890    23092420.198   121351483.750 6      9076.890    23092427.052    94559598.414 6      7072.901    23092427.760    94559625.422 7      7072.901
G20  23316660.633   122529871.743 7      7304.572    23316659.553   122529871.750 5      7304.572    23316667.794    95477853.956 5      5691.874
R21  22823998.486   122135837.474 8     11004.901    22823999.688   122135837.472 8     11004.901    22824011.815    94994595.285 7      8559.367    22824011.540    94994599.288 7      8559.367
> 2024 05 02 08 29  5.0000000  0 13
G05  23322170.552   122558838.522 7      9380.696    23322167.376   122558838.521 7      9380.696    23322179.231    95500432.612 7      7309.633    23322179.880    95500439.611 7      7309.633
R19  21716631.269   116169322.330 7      3928.168    21716631.559   116169322.351 6      3928.168    21716643.305    90353956.933 7      3055.242    21716643.680    90353956.936 7      3055.242
G25  20426642.142   107342718.438 8      6032.347    20426641.467   107342718.436 8      6032.347    20426650.278    83643673.920 8      4700.530    20426651.560    83643712.919 8      4700.530
R20  19435105.142   103928239.758 7      7943.443    19435105.189   103928239.764 7      7943.443    19435116.434    80833118.920 7      6178.233    19435116.920    80833121.923 7      6178.233
G29  20766069.973   109126424.972 8      7485.086    20766067.985   109126424.973 8      7485.086    20766073.521    85033576.596 8      5832.535    20766075.720    85033600.601 8      5832.535
R09  19787369.928   105663439.431 8      5379.080    19787369.723   105663439.416 8      5379.080    19787379.517    82182711.053 8      4183.729    19787379.140    82182711.049 8      4183.729
R10  19605736.018   104509595.503 8      8849.307    19605736.069   104509595.482 8      8849.307
G28  21858743.846   114868463.962 7      7345.268    21858743.455   114868463.960 6      7345.268    21858750.391    89507894.867 6      5723.586    21858750.880    89507920.873 8      5723.586
G12  22444770.535   117948048.124 8      4719.323    22444770.355   117948048.126 7      4719.323    22444775.439    91907565.756 7      3677.394    22444777.920    91907600.765 7      3677.394
G18  22844579.441   120049074.333 7     10532.835    22844579.330   120049074.336 6     10532.835    22844587.985    93544736.974 6      8207.404    22844588.400    93544770.977 8      8207.404
G31  23083785.010   121306102.776 7      9075.471    23083784.384   121306102.779 5      9075.471    23083791.812    94524236.621 5      7071.795    23083791.920    94524263.637 7      7071.795
G20  23309711.321   122493353.666 7      7302.770    23309710.147   122493353.670 5      7302.770    23309718.250    95449398.319 5      5690.470
R21  22813716.198   122080814.171 8     11004.578    22813716.104   122080814.169 8     11004.578    22813729.388    94951799.384 7      8559.116    22813729.100    94951803.404 7      8559.116
> 2024 05 02 08 29 10.0000000  0 13
G05  23313245.782   122511938.213 7      9379.770    23313241.952   122511938.212 7      9379.770    23313254.349    95463886.937 7      7308.911    23313255.060    95463893.949 7      7308.911
R19  21712960.156   116149680.792 6      3928.426    21712960.265   116149680.793 6      3928.426    21712971.422    90338680.140 7      3055.442    21712971.960    90338680.144 7      3055.442
G25  20420903.359   107312560.122 8      6031.228    20420902.587   107312560.119 8      6031.228    20420911.369    83620173.925 8      4699.658    20420912.520    83620212.925 8      4699.658
R20  19427678.767   103888528.311 7      7941.246    19427678.534   103888528.321 7      7941.246    19427689.959    80802232.239 7      6176.525    19427690.800    80802235.240 7      6176.525
G29  20758948.506   109089000.761 8      7484.765    20758946.386   109089000.760 8      7484.765    20758952.004    85004414.866 8      5832.285    20758954.460    85004438.870 8      5832.285
R09  19782334.458   105636550.157 8      5376.862    19782334.391   105636550.142 8      5376.862    19782344.178    82161797.162 8      4182.004    19782343.800    82161797.157 8      4182.004
R10  19597436.686   104465354.982 8      8847.041    19597436.594   104465354.967 8      8847.041
G28  21851755.906   114831743.151 7      7343.136    21851755.950   114831743.152 6      7343.136    21851762.572    89479281.235 6      5721.924    21851763.040    89479307.244 8      5721.924
G12  22440280.317   117924452.660 8      4719.003    22440280.232   117924452.658 7      4719.003    22440285.424    91889179.646 7      3677.146    22440288.200    91889214.654 7      3677.146
G18  22834557.947   119996411.257 7     10532.560    22834557.943   119996411.261 6     10532.560    22834566.061    93503700.835 6      8207.189    22834566.920    93503734.837 7      8207.189
G31  23075150.703   121260729.858 7      9073.905    23075150.485   121260729.857 5      9073.905    23075157.470    94488881.101 5      7070.576    23075157.880    94488908.111 7      7070.576
G20  23302763.749   122456844.275 7      7300.980    23302761.979   122456844.279 5      7300.980    23302771.550    95420949.438 5      5689.075
R21  22803434.048   122025793.183 7     11004.077    22803434.010   122025793.190 8     11004.077    22803447.175    94909005.267 7      8558.726    22803447.140    94909009.279 7      8558.726
> 2024 05 02 08 29 15.0000000  0 13
G05  23304321.682   122465042.467 7      9378.651    23304318.415   122465042.461 7      9378.651    23304330.501    95427344.830 7      7308.040    23304331.380    95427351.839 7      7308.040
R19  21709288.917   116130038.368 7      3928.545    21709287.973   116130038.385 6      3928.545    21709299.786    90323402.680 7      3055.535    21709300.020    90323402.678 7      3055.535
G25  20415165.238   107282407.246 8      6030.022    20415164.733   107282407.241 8      6030.022    20415173.547    83596678.165 8      4698.718    20415174.820    83596717.165 8      4698.718
R20  19420254.368   103848828.591 7      7938.717    19420254.858   103848828.593 7      7938.717    19420265.860    80771354.670 7      6174.557    19420267.040    80771357.675 7      6174.557
G29  20751827.227   109051578.237 8      7484.324    20751825.114   109051578.236 8      7484.324    20751830.721    84975254.451 8      5831.941    20751833.440    84975278.450 8      5831.941
R09  19777300.906   105609672.216 8      5374.438    19777300.855   105609672.202 8      5374.438    19777310.718    82140892.085 8      4180.119    19777310.500    82140892.081 8      4180.119
R10  19589139.336   104421125.603 8      8844.789    19589139.269   104421125.583 7      8844.789
G28  21844770.234   114795032.703 7      7340.992    21844770.436   114795032.702 6      7340.992    21844776.712    89450675.703 6      5720.254    21844777.560    89450701.708 8      5720.254
G12  22435790.743   117900858.765 7      4718.584    22435790.559   117900858.762 7      4718.584    22435795.863    91870794.793 7      3676.818    22435798.460    91870829.798 7      3676.818
